 [{"rank":0,"name":"MOUNT SINAI HOSPITAL","address":"ONE GUSTAVE L LEVY PLACE","lat":40.7914168802915,"long":73.9525482197085},
  {"rank":1,"name":"MOUNT SINAI WEST","address":"1000 TENTH AVENUE","lat":40.77119588029149,"long":-73.9852322197085},
  {"rank":2,"name":"N Y EYE AND EAR INFIRMARY","address":"230 SECOND AVE","lat":40.7914168802915,"long":73.9525482197085},
  {"rank":3,"name":"NEW YORK-PRESBYTERIAN HOSPITAL","address":"525 EAST 68TH STREET","lat":40.76599888029149,"long":-73.95297081970848},
  {"rank":4,"name":"MOUNT SINAI BETH ISRAEL/PETRIE CAMPUS","address":"FIRST AVENUE AT 16TH STREET","lat":40.73445728029149,"long":-73.9807714197085},
  {"rank":5,"name":"METROPOLITAN HOSPITAL CENTER","address":"1901 FIRST AVENUE","lat":40.7862202802915,"long":-73.94304531970849},
  {"rank":6,"name":"BELLEVUE HOSPITAL CENTER","address":"462 FIRST AVENUE","lat":40.74372408029149,"long":-73.9721102197085},
  {"rank":7,"name":"NYU LANGONE HOSPITALS","address":"550 FIRST AVENUE","lat":40.7914168802915,"long":73.9525482197085},
  {"rank":8,"name":"HARLEM HOSPITAL CENTER","address":"506 LENOX AVENUE","lat":40.8157927802915,"long":-73.93806511970848},
  {"rank":9,"name":"HOSPITAL FOR SPECIAL SURGERY","address":"535 EAST 70TH STREET","lat":40.76649218029149,"long":-73.95132241970849},
  {"rank":10,"name":"ROCKEFELLER UNIVERSITY HOSPITAL","address":"1230 YORK AVENUE","lat":40.7632200802915,"long":-73.9543349197085},
  {"rank":11,"name":"LENOX HILL HOSPITAL","address":"100 EAST 77TH STREET","lat":40.7749946802915,"long":-73.9595622197085}
  ]
